{"Poland":[{"name":"Lublin","lat":51.2465,"lon":22.5684},{"name":"Warszawa","lat":52.2297,"lon":21.0122}],"Germany":[{"name":"Berlin","lat":52.5200,"lon":13.4050},{"name":"Munich","lat":48.1351,"lon":11.5820}],"France":[{"name":"Paris","lat":48.8566,"lon":2.3522},{"name":"Lyon","lat":45.7640,"lon":4.8357}]}